{"type": "FeatureCollection","features": [
{ "type": "Feature", "id": 1, "properties": { "NAME": "NATIONAL MUSEUM", "TEL": null, "URL": null, "ADDRESS1": "NATIONAL MUSEUM,  Athens,  Greece", "ADDRES2": null, "CITY": null, "ZIP": null }, "geometry": { "type": "Point", "coordinates": [ 23.73155 , 37.98922 ] } },
{ "type": "Feature", "id": 2, "properties": { "NAME": "OMONIAS SQUARE", "TEL": null, "URL": null, "ADDRESS1": "OMONIAS SQUARE,  Athens,  Greece", "ADDRES2": null, "CITY": null, "ZIP": null }, "geometry": { "type": "Point", "coordinates": [ 23.72812 , 37.98383 ] } },
{ "type": "Feature", "id": 3, "properties": { "NAME": "LYKAVITTOS HILL", "TEL": null, "URL": null, "ADDRESS1": "LYKAVITTOS HILL,  Athens,  Greece", "ADDRES2": null, "CITY": null, "ZIP": null }, "geometry": { "type": "Point", "coordinates": [ 23.74327 , 37.98190 ] } },
{ "type": "Feature", "id": 4, "properties": { "NAME": "PANEPISTIMIO", "TEL": null, "URL": null, "ADDRESS1": "PANEPISTIMIO SUBWAY STATION,  Athens,  Greece", "ADDRES2": null, "CITY": null, "ZIP": null }, "geometry": { "type": "Point", "coordinates": [ 23.73325 , 37.98023 ] } },
{ "type": "Feature", "id": 5, "properties": { "NAME": "KERAMEIKOS", "TEL": null, "URL": null, "ADDRESS1": "KERAMEIKOS,  Athens,  Greece", "ADDRES2": null, "CITY": null, "ZIP": null }, "geometry": { "type": "Point", "coordinates": [ 23.71642 , 37.97873 ] } },
{ "type": "Feature", "id": 6, "properties": { "NAME": "KOLONAKI", "TEL": null, "URL": null, "ADDRESS1": "KOLONAKI,  Athens,  Greece", "ADDRES2": null, "CITY": null, "ZIP": null }, "geometry": { "type": "Point", "coordinates": [ 23.74105 , 37.97713 ] } },
{ "type": "Feature", "id": 7, "properties": { "NAME": "MONASTIRAKI", "TEL": null, "URL": null, "ADDRESS1": "MONASTIRAKI,  Athens,  Greece", "ADDRES2": null, "CITY": null, "ZIP": null }, "geometry": { "type": "Point", "coordinates": [ 23.72553 , 37.97638 ] } },
{ "type": "Feature", "id": 8, "properties": { "NAME": "THISSIO SUBWAY", "TEL": null, "URL": null, "ADDRESS1": "THISSIO SUBWAY STATION,  Athens,  Greece", "ADDRES2": null, "CITY": null, "ZIP": null }, "geometry": { "type": "Point", "coordinates": [ 23.72063 , 37.97637 ] } },
{ "type": "Feature", "id": 9, "properties": { "NAME": "AGORA MAIN ENTRANCE", "TEL": null, "URL": null, "ADDRESS1": "AGORA MAIN ENTRANCE,  Athens,  Greece", "ADDRES2": null, "CITY": null, "ZIP": null }, "geometry": { "type": "Point", "coordinates": [ 23.72320 , 37.97590 ] } },
{ "type": "Feature", "id": 10, "properties": { "NAME": "THESEION", "TEL": null, "URL": null, "ADDRESS1": "THESEION,  Athens,  Greece", "ADDRES2": null, "CITY": null, "ZIP": null }, "geometry": { "type": "Point", "coordinates": [ 23.72160 , 37.97550 ] } },
{ "type": "Feature", "id": 11, "properties": { "NAME": "SYNTAGMA SQUARE", "TEL": null, "URL": null, "ADDRESS1": "SYNTAGMA SQUARE,  Athens,  Greece", "ADDRES2": null, "CITY": null, "ZIP": null }, "geometry": { "type": "Point", "coordinates": [ 23.73615 , 37.97535 ] } },
{ "type": "Feature", "id": 12, "properties": { "NAME": "AGORA SIDE ENTRANCE", "TEL": null, "URL": null, "ADDRESS1": "AGORA SIDE ENTRANCE,  Athens,  Greece", "ADDRES2": null, "CITY": null, "ZIP": null }, "geometry": { "type": "Point", "coordinates": [ 23.72050 , 37.97472 ] } },
{ "type": "Feature", "id": 13, "properties": { "NAME": "ROMAN AGORA", "TEL": null, "URL": null, "ADDRESS1": "ROMAN AGORA,  Athens,  Greece", "ADDRES2": null, "CITY": null, "ZIP": null }, "geometry": { "type": "Point", "coordinates": [ 23.72713 , 37.97438 ] } },
{ "type": "Feature", "id": 14, "properties": { "NAME": "TOURIST OFFICE", "TEL": null, "URL": null, "ADDRESS1": "TOURIST OFFICE,  Athens,  Greece", "ADDRES2": null, "CITY": null, "ZIP": null }, "geometry": { "type": "Point", "coordinates": [ 23.73423 , 37.97262 ] } },
{ "type": "Feature", "id": 15, "properties": { "NAME": "ACROPOLIS", "TEL": null, "URL": null, "ADDRESS1": "ACROPOLIS,  Athens,  Greece", "ADDRES2": null, "CITY": null, "ZIP": null }, "geometry": { "type": "Point", "coordinates": [ 23.72793 , 37.97187 ] } },
{ "type": "Feature", "id": 16, "properties": { "NAME": "ACROPOLIS MAIN ENTR", "TEL": null, "URL": null, "ADDRESS1": "ACROPOLIS MAIN ENTRANCE,  Athens,  Greece", "ADDRES2": null, "CITY": null, "ZIP": null }, "geometry": { "type": "Point", "coordinates": [ 23.72377 , 37.97125 ] } },
{ "type": "Feature", "id": 17, "properties": { "NAME": "DIONYSOS THEATRE", "TEL": null, "URL": null, "ADDRESS1": "DIONYSOS THEATRE,  Athens,  Greece", "ADDRES2": null, "CITY": null, "ZIP": null }, "geometry": { "type": "Point", "coordinates": [ 23.72785 , 37.97025 ] } },
{ "type": "Feature", "id": 18, "properties": { "NAME": "ACROPOLIS BUS STOP", "TEL": null, "URL": null, "ADDRESS1": "ACROPOLIS BUS STOP,  Athens,  Greece", "ADDRES2": null, "CITY": null, "ZIP": null }, "geometry": { "type": "Point", "coordinates": [ 23.72207 , 37.97020 ] } },
{ "type": "Feature", "id": 19, "properties": { "NAME": "OLYMPIC ZEUS TEMPLE", "TEL": null, "URL": null, "ADDRESS1": "OLYMPIC ZEUS TEMPLE,  Athens,  Greece", "ADDRES2": null, "CITY": null, "ZIP": null }, "geometry": { "type": "Point", "coordinates": [ 23.73430 , 37.97008 ] } },
{ "type": "Feature", "id": 20, "properties": { "NAME": "PANATHINAIKON", "TEL": null, "URL": null, "ADDRESS1": "PANATHINAIKON,  Athens,  Greece", "ADDRES2": null, "CITY": null, "ZIP": null }, "geometry": { "type": "Point", "coordinates": [ 23.73972 , 37.96973 ] } },
{ "type": "Feature", "id": 21, "properties": { "NAME": "ACROPOLIS SOUTH ENTR", "TEL": null, "URL": null, "ADDRESS1": "ACROPOLIS SOUTH ENTRANCE,  Athens,  Greece", "ADDRES2": null, "CITY": null, "ZIP": null }, "geometry": { "type": "Point", "coordinates": [ 23.72907 , 37.96963 ] } },
{ "type": "Feature", "id": 22, "properties": { "NAME": "PIRAEUS", "TEL": null, "URL": null, "ADDRESS1": "PIRAEUS,  Athens,  Greece", "ADDRES2": null, "CITY": null, "ZIP": null }, "geometry": { "type": "Point", "coordinates": [ 23.63660 , 37.93702 ] } },
{ "type": "Feature", "id": 23, "properties": { "NAME": "VENIZELOS AIRPORT", "TEL": null, "URL": null, "ADDRESS1": "VENIZELOS AIRPORT,  Athens,  Greece", "ADDRES2": null, "CITY": null, "ZIP": null }, "geometry": { "type": "Point", "coordinates": [ 23.94650 , 37.93653 ] } },
{ "type": "Feature", "id": 24, "properties": { "NAME": "CORINTH CANAL", "TEL": null, "URL": null, "ADDRESS1": "CORINTH CANAL,  Corinthia,  Greece", "ADDRES2": null, "CITY": null, "ZIP": null }, "geometry": { "type": "Point", "coordinates": [ 22.99447 , 37.92723 ] } },
{ "type": "Feature", "id": 25, "properties": { "NAME": "ANCIENT CORINTH", "TEL": null, "URL": null, "ADDRESS1": "ANCIENT CORINTH,  Corinthia,  Greece", "ADDRES2": null, "CITY": null, "ZIP": null }, "geometry": { "type": "Point", "coordinates": [ 22.87787 , 37.90572 ] } },
{ "type": "Feature", "id": 26, "properties": { "NAME": "EPIDAURUS THEATRE", "TEL": null, "URL": null, "ADDRESS1": "EPIDAURUS THEATRE,  Lygourio,  Greece", "ADDRES2": null, "CITY": null, "ZIP": null }, "geometry": { "type": "Point", "coordinates": [ 23.07930 , 37.59618 ] } },
{ "type": "Feature", "id": 27, "properties": { "NAME": "ARVANITIA BEACH", "TEL": null, "URL": null, "ADDRESS1": "ARVANITIA BEACH,  Nafplio,  Greece", "ADDRES2": null, "CITY": null, "ZIP": null }, "geometry": { "type": "Point", "coordinates": [ 22.79973 , 37.56273 ] } },
{ "type": "Feature", "id": 28, "properties": { "NAME": "ANCIENT MYCENAE", "TEL": null, "URL": null, "ADDRESS1": "ANCIENT MYCENAE,  Mycenae,  Greece", "ADDRES2": null, "CITY": null, "ZIP": null }, "geometry": { "type": "Point", "coordinates": [ 22.75510 , 37.73110 ] } },
{ "type": "Feature", "id": 29, "properties": { "NAME": "LIONS' GATE", "TEL": null, "URL": null, "ADDRESS1": "LIONS' GATE,  Mycenae,  Greece", "ADDRES2": null, "CITY": null, "ZIP": null }, "geometry": { "type": "Point", "coordinates": [ 22.75652 , 37.73077 ] } },
{ "type": "Feature", "id": 30, "properties": { "NAME": "TREASURE OF ATREUS", "TEL": null, "URL": null, "ADDRESS1": "TREASURE OF ATREUS,  Mycenae,  Greece", "ADDRES2": null, "CITY": null, "ZIP": null }, "geometry": { "type": "Point", "coordinates": [ 22.75425 , 37.72678 ] } },
{ "type": "Feature", "id": 31, "properties": { "NAME": "MYSTRAS LOWER GATE", "TEL": null, "URL": null, "ADDRESS1": "MYSTRAS LOWER GATE,  Mystras,  Greece", "ADDRES2": null, "CITY": null, "ZIP": null }, "geometry": { "type": "Point", "coordinates": [ 22.36952 , 37.07543 ] } },
{ "type": "Feature", "id": 32, "properties": { "NAME": "MYSTRAS UPPER GATE", "TEL": null, "URL": null, "ADDRESS1": "MYSTRAS UPPER GATE,  Mystras,  Greece", "ADDRES2": null, "CITY": null, "ZIP": null }, "geometry": { "type": "Point", "coordinates": [ 22.36555 , 37.07345 ] } },
{ "type": "Feature", "id": 33, "properties": { "NAME": "TEMPLE OF APOLLO", "TEL": null, "URL": null, "ADDRESS1": "TEMPLE OF APOLLO,  Andritsaina,  Greece", "ADDRES2": null, "CITY": null, "ZIP": null }, "geometry": { "type": "Point", "coordinates": [ 21.89998 , 37.42933 ] } },
{ "type": "Feature", "id": 34, "properties": { "NAME": "OLYMPIA MUSEUM", "TEL": null, "URL": null, "ADDRESS1": "OLYMPIA MUSEUM,  Ancient Olympia,  Greece", "ADDRES2": null, "CITY": null, "ZIP": null }, "geometry": { "type": "Point", "coordinates": [ 21.62868 , 37.64357 ] } },
{ "type": "Feature", "id": 35, "properties": { "NAME": "OLYMPIC SITE", "TEL": null, "URL": null, "ADDRESS1": "OLYMPIC SITE,  Ancient Olympia,  Greece", "ADDRES2": null, "CITY": null, "ZIP": null }, "geometry": { "type": "Point", "coordinates": [ 21.62832 , 37.64007 ] } },
{ "type": "Feature", "id": 36, "properties": { "NAME": "DELPHI STADIUM", "TEL": null, "URL": null, "ADDRESS1": "DELPHI STADIUM,  Delphi,  Greece", "ADDRES2": null, "CITY": null, "ZIP": null }, "geometry": { "type": "Point", "coordinates": [ 22.49827 , 38.48275 ] } },
{ "type": "Feature", "id": 37, "properties": { "NAME": "DELPHI THEATRE", "TEL": null, "URL": null, "ADDRESS1": "DELPHI THEATRE,  Delphi,  Greece", "ADDRES2": null, "CITY": null, "ZIP": null }, "geometry": { "type": "Point", "coordinates": [ 22.50065 , 38.48248 ] } },
{ "type": "Feature", "id": 38, "properties": { "NAME": "DELPHI SITE", "TEL": null, "URL": null, "ADDRESS1": "DELPHI SITE,  Delphi,  Greece", "ADDRES2": null, "CITY": null, "ZIP": null }, "geometry": { "type": "Point", "coordinates": [ 22.50285 , 38.48182 ] } },
{ "type": "Feature", "id": 39, "properties": { "NAME": "DELPHI MUSEUM", "TEL": null, "URL": null, "ADDRESS1": "DELPHI MUSEUM,  Delphi,  Greece", "ADDRES2": null, "CITY": null, "ZIP": null }, "geometry": { "type": "Point", "coordinates": [ 22.50013 , 38.48040 ] } },
{ "type": "Feature", "id": 40, "properties": { "NAME": "TEMPLE OF ATHENA", "TEL": null, "URL": null, "ADDRESS1": "TEMPLE OF ATHENA,  Delphi,  Greece", "ADDRES2": null, "CITY": null, "ZIP": null }, "geometry": { "type": "Point", "coordinates": [ 22.50798 , 38.48010 ] } },
{ "type": "Feature", "id": 41, "properties": { "NAME": "VARLAAM MONASTERY", "TEL": null, "URL": null, "ADDRESS1": "VARLAAM MONASTERY,  Kalambaki,  Greece", "ADDRES2": null, "CITY": null, "ZIP": null }, "geometry": { "type": "Point", "coordinates": [ 21.63007 , 39.72487 ] } },
{ "type": "Feature", "id": 42, "properties": { "NAME": "METEORA VIEW", "TEL": null, "URL": null, "ADDRESS1": "METEORA VIEW,  Kalambaki,  Greece", "ADDRES2": null, "CITY": null, "ZIP": null }, "geometry": { "type": "Point", "coordinates": [ 21.63400 , 39.72103 ] } },
{ "type": "Feature", "id": 43, "properties": { "NAME": "STEFANOS MONASTERY", "TEL": null, "URL": null, "ADDRESS1": "STEFANOS MONASTERY,  Kalambaki,  Greece", "ADDRES2": null, "CITY": null, "ZIP": null }, "geometry": { "type": "Point", "coordinates": [ 21.63873 , 39.70928 ] } },
{ "type": "Feature", "id": 44, "properties": { "NAME": "VICTORIA SUBWAY", "TEL": null, "URL": null, "ADDRESS1": "VICTORIA SUBWAY STATION,  Athens,  Greece", "ADDRES2": null, "CITY": null, "ZIP": null }, "geometry": { "type": "Point", "coordinates": [ 23.73013 , 37.99308 ] } },
{ "type": "Feature", "id": 45, "properties": { "NAME": "RHODES PORT", "TEL": null, "URL": null, "ADDRESS1": "RHODES PORT,  Rhodes,  Greece", "ADDRES2": null, "CITY": null, "ZIP": null }, "geometry": { "type": "Point", "coordinates": [ 28.22565 , 36.44990 ] } },
{ "type": "Feature", "id": 46, "properties": { "NAME": "D'AMBOISE GATE", "TEL": null, "URL": null, "ADDRESS1": "D'AMBOISE GATE,  Rhodes,  Greece", "ADDRES2": null, "CITY": null, "ZIP": null }, "geometry": { "type": "Point", "coordinates": [ 28.22245 , 36.44595 ] } },
{ "type": "Feature", "id": 47, "properties": { "NAME": "PALACE OF KNIGHTS", "TEL": null, "URL": null, "ADDRESS1": "PALACE OF KNIGHTS,  Rhodes,  Greece", "ADDRES2": null, "CITY": null, "ZIP": null }, "geometry": { "type": "Point", "coordinates": [ 28.22412 , 36.44513 ] } },
{ "type": "Feature", "id": 48, "properties": { "NAME": "MUSEUM RHODES", "TEL": null, "URL": null, "ADDRESS1": "MUSEUM RHODES,  Rhodes,  Greece", "ADDRES2": null, "CITY": null, "ZIP": null }, "geometry": { "type": "Point", "coordinates": [ 28.22727 , 36.44488 ] } },
{ "type": "Feature", "id": 49, "properties": { "NAME": "SULEIMAN MOSQUE", "TEL": null, "URL": null, "ADDRESS1": "SULEIMAN MOSQUE,  Rhodes,  Greece", "ADDRES2": null, "CITY": null, "ZIP": null }, "geometry": { "type": "Point", "coordinates": [ 28.22438 , 36.44410 ] } },
{ "type": "Feature", "id": 50, "properties": { "NAME": "VIRGIN GATE", "TEL": null, "URL": null, "ADDRESS1": "VIRGIN GATE,  Rhodes,  Greece", "ADDRES2": null, "CITY": null, "ZIP": null }, "geometry": { "type": "Point", "coordinates": [ 28.23077 , 36.44338 ] } },
{ "type": "Feature", "id": 51, "properties": { "NAME": "HAMMAM BATHS", "TEL": null, "URL": null, "ADDRESS1": "HAMMAM BATHS,  Rhodes,  Greece", "ADDRES2": null, "CITY": null, "ZIP": null }, "geometry": { "type": "Point", "coordinates": [ 28.22485 , 36.44295 ] } },
{ "type": "Feature", "id": 52, "properties": { "NAME": "MUSEUM HERACLION", "TEL": null, "URL": null, "ADDRESS1": "MUSEUM HERACLION,  Crete,  Greece", "ADDRES2": null, "CITY": null, "ZIP": null }, "geometry": { "type": "Point", "coordinates": [ 25.13718 , 35.33873 ] } },
{ "type": "Feature", "id": 53, "properties": { "NAME": "KNOSSOS PALACE", "TEL": null, "URL": null, "ADDRESS1": "KNOSSOS PALACE,  Crete,  Greece", "ADDRES2": null, "CITY": null, "ZIP": null }, "geometry": { "type": "Point", "coordinates": [ 25.16122 , 35.29818 ] } },
{ "type": "Feature", "id": 54, "properties": { "NAME": "TEMPLE POSEIDON", "TEL": null, "URL": null, "ADDRESS1": "TEMPLE POSEIDON,  Sounion,  Greece", "ADDRES2": null, "CITY": null, "ZIP": null }, "geometry": { "type": "Point", "coordinates": [ 24.02427 , 37.65015 ] } },
{ "type": "Feature", "id": 55, "properties": { "NAME": "TEMPLE ATHENA", "TEL": null, "URL": null, "ADDRESS1": "TEMPLE ATHENA,  Lindos,  Greece", "ADDRES2": null, "CITY": null, "ZIP": null }, "geometry": { "type": "Point", "coordinates": [ 28.08828 , 36.09120 ] } },
{ "type": "Feature", "id": 56, "properties": { "NAME": "OIA", "TEL": null, "URL": null, "ADDRESS1": "OIA,  Santorini,  Greece", "ADDRES2": null, "CITY": null, "ZIP": null }, "geometry": { "type": "Point", "coordinates": [ 25.37642 , 36.46312 ] } },
{ "type": "Feature", "id": 57, "properties": { "NAME": "CALDERA VIEW", "TEL": null, "URL": null, "ADDRESS1": "CALDERA VIEW,  Santorini,  Greece", "ADDRES2": null, "CITY": null, "ZIP": null }, "geometry": { "type": "Point", "coordinates": [ 25.37643 , 36.46190 ] } },
{ "type": "Feature", "id": 58, "properties": { "NAME": "FIRA CABLE CAR DOWN", "TEL": null, "URL": null, "ADDRESS1": "FIRA CABLE CAR DOWN,  Santorini,  Greece", "ADDRES2": null, "CITY": null, "ZIP": null }, "geometry": { "type": "Point", "coordinates": [ 25.43075 , 36.42013 ] } },
{ "type": "Feature", "id": 59, "properties": { "NAME": "FIRA CABLE CAR UP", "TEL": null, "URL": null, "ADDRESS1": "FIRA CABLE CAR UP,  Santorini,  Greece", "ADDRES2": null, "CITY": null, "ZIP": null }, "geometry": { "type": "Point", "coordinates": [ 25.42722 , 36.41887 ] } },
{ "type": "Feature", "id": 60, "properties": { "NAME": "FIRA", "TEL": null, "URL": null, "ADDRESS1": "FIRA,  Santorini,  Greece", "ADDRES2": null, "CITY": null, "ZIP": null }, "geometry": { "type": "Point", "coordinates": [ 25.43238 , 36.41757 ] } },
{ "type": "Feature", "id": 61, "properties": { "NAME": "FIRA PORT", "TEL": null, "URL": null, "ADDRESS1": "FIRA PORT,  Santorini,  Greece", "ADDRES2": null, "CITY": null, "ZIP": null }, "geometry": { "type": "Point", "coordinates": [ 25.42930 , 36.38617 ] } }
]}
